{"markers":[ {"comune":"Maratea", "fermata":"P.zza Europa", "lat":39.99568, "lon":15.722272},
{"comune" : "Sapri" , "fermata" : "Terminal bus","lat" : 40.076762 , "lon" : 15.627513},
{"comune" : "Policastro" , "fermata" : "Pasticceria Chiara","lat" : 40.074141 , "lon" : 15.520922},
{"comune" : "Celle di Bulgheria" , "fermata" : "distributore esso","lat" : 40.094369 , "lon" : 15.35883},
{"comune" : "Vallo della Lucania" , "fermata" : "Terminal bus","lat" : 40.23077 , "lon" : 15.26425},
{"comune" : "Agropoli" , "fermata" : "Ospedale Civile","lat" : 40.340881 , "lon" : 14.998366},
{"comune" : "Capaccio" , "fermata" : "Agripaestum","lat" : 40.46538 , "lon" : 15.01546},
{"comune" : "Eboli" , "fermata" : "distributore esso","lat" : 40.608117 , "lon" : 15.047485},
{"comune" : "Milano" , "fermata" : "Rogoredo - Stazione Fs","lat" : 45.43365 , "lon" : 9.23799},
{"comune" : "Milano" , "fermata" : "Lampugnano - Autostazione","lat" : 45.489806 , "lon" : 9.127493},
{"comune" : "Arese" , "fermata" : "Stab. Alfa Romeo","lat" : 45.562271 , "lon" : 9.058305},
{"comune" : "Rescaldina" , "fermata" : "Stab. Bassetti","lat" : 45.61205 , "lon" : 8.94627},
{"comune" : "Busto Arsizio" , "fermata" : "P.le D' Annunzio","lat" : 45.632305 , "lon" : 8.84492},
{"comune" : "Gallarate" , "fermata" : "Stazione FS","lat" : 45.659233 , "lon" : 8.795536},
{"comune" : "Gallarate" , "fermata" : "Via Riva","lat" : 45.666242 , "lon" : 8.795379},
{"comune" : "Albizzate" , "fermata" : "Stazione FS","lat" : 45.722737 , "lon" : 8.806076},
{"comune" : "Castronno" , "fermata" : "P.le Cimitero","lat" : 45.75181 , "lon" : 8.80896},
{"comune" : "Varese" , "fermata" : "P.le Kennedy","lat" : 45.818003 , "lon" : 8.834893},
{"comune" : "Cittiglio" , "fermata" : "Stazione FS","lat" : 45.892874 , "lon" : 8.66777} ]}
